{"type":"FeatureCollection","features":[{"type":"Feature","properties":{"Nombre":"Portal suba","Dirección":"Avenida Suba con Avenida Ciudad de Cali."},"geometry":{"coordinates":[-74.09431747883414,4.7468710649259975],"type":"Point"}},{"type":"Feature","properties":{"Nombre":"Portal 80","Dirección":"Avenida Medellín entre la Avenida Longitudinal de Occidente"},"geometry":{"coordinates":[-74.1104587795432,4.709788460086656],"type":"Point"}},{"type":"Feature","properties":{"Nombre":"Portal el Dorado","Dirección":"Avenida El Dorado entre la Avenida Cali y la transversal 93."},"geometry":{"coordinates":[-74.12142640527713,4.6815835246582225],"type":"Point"}},{"type":"Feature","properties":{"Nombre":"Portal de las Americas","Dirección":"Avenida carrera 86 # 43 sur"},"geometry":{"coordinates":[-74.17312484017135,4.629465167949093],"type":"Point"}},{"type":"Feature","properties":{"Nombre":"Portal del sur","Dirección":"Autopista Sur entre la carrera 72D y la transversal 73I"},"geometry":{"coordinates":[-74.16936562595481,4.597107216505137],"type":"Point"}},{"type":"Feature","properties":{"Nombre":"Portal Tunal","Dirección":"Calle 56 Sur #2365 "},"geometry":{"coordinates":[-74.13928774043713,4.569870617078848],"type":"Point"}},{"type":"Feature","properties":{"Nombre":"Portal Norte","Dirección":"Autopista Norte entre calles 172 y 176."},"geometry":{"coordinates":[-74.0460561785364,4.754664141189551],"type":"Point"}},{"type":"Feature","properties":{"Nombre":"Portal Usme","Dirección":"Av.Carrera 14 con Calles 65 y 68 Sur "},"geometry":{"coordinates":[-74.11929224389542,4.5313173623297445],"type":"Point"},"id":7},{"type":"Feature","properties":{"Nombre":"Portal 20 de Julio","Dirección":"Carera 5 - calle 31 Sur"},"geometry":{"coordinates":[-74.09645321296446,4.565180665672742],"type":"Point"},"id":8}]}